
[
    {
        "id": 59,
        "idPercorso":0,
        "name": "Piazza Bra",        
        "createDate": "Prima metà del XVI secolo",
        "lat": 45.44,
        "long": 10.99,
        "distance": 0,
        "image": "piazzabra.jpg",
        "state": "Italia",
        "data": "Piazza Bra, che fonde edifici di epoche ed architetture diverse. L'Arena, palazzo Barbieri e la Gran Guardia sono quelli più celebri ed ammirati, ma non da meno sono la Fontana delle Alpi, il Liston con i suoi palazzi nobiliari, le mura viscontee, la statua di Vittorio Emanuele II e la Torre Pentagona."
    },
    
    {
        "id": 60,
        "idPercorso":0,
        "name": "Parco delle Mura",
        "createDate": "Tra il 1300 e il 1850 circa",
        "lat": 45.45,
        "long": 10.98,
        "distance": 0,
        "image": "parcomura.png",
        "state": "Italia",
        "data": "This geologically unique area has colorful sandstone canyons, high plateaus, and rock towers. Natural arches and exposed formations of the Colorado Plateau make up a large wilderness of four ecosystems."
    },
    
    {
        "id": 61,
        "idPercorso":0,
        "name": "Parco dell'Adige",
        "createDate": "Febbraio 28, 2005",
        "lat": 45.42,
        "long": 10.97,
        "distance": 0,
        "image": "parcoadige.png",
        "state": "Italia",
        "data": "Il Parco dell'Adige é un'area naturale protetta di interesse locale che si sviluppa una superficie di oltre 1 milione di metri quadrati."
    },
    
    {
        "id": 62,
        "idPercorso":0,
        "name": "Parco Naturale Regionale della Lessinia",
        "createDate": "Gennaio 30, 1990",
        "lat": 45.69,
        "long": 11.05,
        "distance": 0,
        "image": "parcolessinia.png",
        "state": "Italia",
        "data": "Il Parco Regionale della Lessinia si estende per oltre 10.000 ettari sull’altopiano dei Monti Lessini e racchiude una sorprendente varietà di testimonianze naturalistiche, storiche e archeologiche di inestimabile valore."
    },
    
    
    {
        "id": 63,
        "idPercorso":0,
        "name": "Giardino Giusti",
        "createDate": "Fine del 1400",
        "lat": 45.44,
        "long": 11.01,
        "distance": 0,
        "image": "giardinogiusti.png",
        "state": "Italia",
        "data": "Visitato e celebrato nei secoli da illustri personaggi della storia e della cultura (tra cui Cosimo De' Medici, De Brosses, Addison, l'imperatore Giuseppe II, Goethe, Mozart, Carlo Felice di Savoia, Suares e Gabriel Faure), il Giardino costituisce, con il contiguo palazzo cinquecentesco, un complesso urbano di grande interesse e bellezza."
    },
    
    {
        "id": 64,
        "idPercorso":0,
        "name": "Parco Giardino Sigurtà",
        "createDate": "Marzo 14, 1407",
        "lat": 45.36,
        "long": 10.73,
        "distance": 0,
        "image": "sigurta.png",
        "state": "Italia",
        "data": "L'itinerario all'interno del Parco è di circa 6 km, articolati su un sali e scendi di vialetti in porfido percorribili sia a piedi che in bici."
    },   
    {
        "id": 65,
        "idPercorso":0,
        "name": "Parco Baia delle Sirene",
        "createDate": "",
        "lat": 45.57,
        "long": 10.67,
        "distance": 0,
        "image": "baiasirene.png",
        "state": "Italia",
        "data": "Il Parco Baia delle Sirene offre il piacere ad adulti e bambini di tuffarsi nelle splendide acque della Baia e la possibilità di trascorrere le calde giornate estive in pieno relax."
    },   
    {
        "id": 66,
        "idPercorso":0,
        "name": "Parco Agricampeggio Borghetto",
        "createDate": "1900",
        "lat": 45.35,
        "long": 10.72,
        "distance": 0,
        "image": "campoborghetto.png",
        "state": "Italia",
        "data": "L’agri-campeggio Parco di Borghetto è situato in una stupenda posizione, sulle colline moreniche a sud del lago di Garda nel Parco del Mincio, a solo 300 metri dal centro di Borghetto, considerato il Borgo più Bello d’Italia."
    },    
    {
        "id": 67,
        "idPercorso":0,
        "name": "Parco delle Cascate",
        "createDate": "",
        "lat": 45.59,
        "long": 10.90,
        "distance": 0,
        "image": "parcocascate.png",
        "state": "Italia",
        "data": "A pochi chilometri da Verona, immerso nel verde, il Parco delle Cascate di Molina vi aspetta per offrirvi il meraviglioso spettacolo delle sue cascate."
    },
    
    {
        "id": 68,
        "idPercorso":0,
        "name": "Giardino di Pojega",
        "createDate": "1783",
        "lat": 45.53,
        "long": 10.95,
        "distance": 0,
        "image": "parcopojega.png",
        "state": "Italia",
        "data": "Il giardino di Pojega riesce a sintetizzare i canoni classici del giardino all’italiana con il gusto “pittoresco” del nascente Romanticismo."
    },
    {
        "id": 69,
        "idPercorso":1,
        "name": "Piazza Bra 2",        
        "createDate": "Prima metà del XVI secolo",
        "lat": 45.44,
        "long": 10.99,
        "distance": 0,
        "image": "piazzabra.jpg",
        "state": "Italia",
        "data": "Piazza Bra, che fonde edifici di epoche ed architetture diverse. L'Arena, palazzo Barbieri e la Gran Guardia sono quelli più celebri ed ammirati, ma non da meno sono la Fontana delle Alpi, il Liston con i suoi palazzi nobiliari, le mura viscontee, la statua di Vittorio Emanuele II e la Torre Pentagona."
    },
    
    {
        "id": 70,
        "idPercorso":1,
        "name": "Parco delle Mura 2",
        "createDate": "Tra il 1300 e il 1850 circa",
        "lat": 45.45,
        "long": 10.98,
        "distance": 0,
        "image": "parcomura.png",
        "state": "Italia",
        "data": "This geologically unique area has colorful sandstone canyons, high plateaus, and rock towers. Natural arches and exposed formations of the Colorado Plateau make up a large wilderness of four ecosystems."
    },
    
    {
        "id": 71,
        "idPercorso":1,
        "name": "Parco dell'Adige 2",
        "createDate": "Febbraio 28, 2005",
        "lat": 45.42,
        "long": 10.97,
        "distance": 0,
        "image": "parcoadige.png",
        "state": "Italia",
        "data": "Il Parco dell'Adige é un'area naturale protetta di interesse locale che si sviluppa una superficie di oltre 1 milione di metri quadrati."
    },
    
    {
        "id": 72,
        "idPercorso":1,
        "name": "Parco Naturale Regionale della Lessinia 2",
        "createDate": "Gennaio 30, 1990",
        "lat": 45.69,
        "long": 11.05,
        "distance": 0,
        "image": "parcolessinia.png",
        "state": "Italia",
        "data": "Il Parco Regionale della Lessinia si estende per oltre 10.000 ettari sull’altopiano dei Monti Lessini e racchiude una sorprendente varietà di testimonianze naturalistiche, storiche e archeologiche di inestimabile valore."
    },
    
    
    {
        "id": 73,
        "idPercorso":1,
        "name": "Giardino Giusti 2",
        "createDate": "Fine del 1400",
        "lat": 45.44,
        "long": 11.01,
        "distance": 0,
        "image": "giardinogiusti.png",
        "state": "Italia",
        "data": "Visitato e celebrato nei secoli da illustri personaggi della storia e della cultura (tra cui Cosimo De' Medici, De Brosses, Addison, l'imperatore Giuseppe II, Goethe, Mozart, Carlo Felice di Savoia, Suares e Gabriel Faure), il Giardino costituisce, con il contiguo palazzo cinquecentesco, un complesso urbano di grande interesse e bellezza."
    },
    
    {
        "id": 74,
        "idPercorso":1,
        "name": "Parco Giardino Sigurtà 2",
        "createDate": "Marzo 14, 1407",
        "lat": 45.36,
        "long": 10.73,
        "distance": 0,
        "image": "sigurta.png",
        "state": "Italia",
        "data": "L'itinerario all'interno del Parco è di circa 6 km, articolati su un sali e scendi di vialetti in porfido percorribili sia a piedi che in bici."
    },
    
    {
        "id": 75,
        "idPercorso":1,
        "name": "Parco Baia delle Sirene 2",
        "createDate": "",
        "lat": 45.57,
        "long": 10.67,
        "distance": 0,
        "image": "baiasirene.png",
        "state": "Italia",
        "data": "Il Parco Baia delle Sirene offre il piacere ad adulti e bambini di tuffarsi nelle splendide acque della Baia e la possibilità di trascorrere le calde giornate estive in pieno relax."
    },
    
    {
        "id": 76,
        "idPercorso":1,
        "name": "Parco Agricampeggio Borghetto 2",
        "createDate": "1900",
        "lat": 45.35,
        "long": 10.72,
        "distance": 0,
        "image": "campoborghetto.png",
        "state": "Italia",
        "data": "L’agri-campeggio Parco di Borghetto è situato in una stupenda posizione, sulle colline moreniche a sud del lago di Garda nel Parco del Mincio, a solo 300 metri dal centro di Borghetto, considerato il Borgo più Bello d’Italia."
    },
    
    {
        "id": 77,
        "idPercorso":1,
        "name": "Parco delle Cascate 2",
        "createDate": "",
        "lat": 45.59,
        "long": 10.90,
        "distance": 0,
        "image": "parcocascate.png",
        "state": "Italia",
        "data": "A pochi chilometri da Verona, immerso nel verde, il Parco delle Cascate di Molina vi aspetta per offrirvi il meraviglioso spettacolo delle sue cascate."
    },
    
    {
        "id": 78,
        "idPercorso":1,
        "name": "Giardino di Pojega 2",
        "createDate": "1783",
        "lat": 45.53,
        "long": 15.95,
        "distance": 0,
        "image": "parcopojega.png",
        "state": "Italia",
        "data": "Il giardino di Pojega riesce a sintetizzare i canoni classici del giardino all’italiana con il gusto “pittoresco” del nascente Romanticismo."
    }
  ]